{
  "name": "flux-app-learnplaces",
  "src": "./modules/src/Adapters/Api/FluxAppApi.mjs",
  "operations": {
    "createHeader": {
      "on": {
        "address": "{$applicationName}/layout/created"
      },
      "handles": "dispatch",
      "publishes": {
        "address": "{$applicationName}/layout/appendTemplateContent",
        "message": {
          "payload": {
            "templateName": "header",
            "parentId": "flux-learnplaces/layout"
          }
        }
      }
    },
    "createHeaderMenu": {
      "on": {
        "address": "{$applicationName}/layout/header/created"
      },
      "handles": "dispatch",
      "publishes": {
        "address": "{$applicationName}/layout/appendTemplateContent",
        "message": {
          "payload": {
            "templateName": "menu",
            "parentId": "flux-learnplaces/layout/header",
            "slotName": "menu"
          }
        }
      }
    },
    "createnHeaderMenuTitle": {
      "on": {
        "address": "{$applicationName}/layout/header/menu/created"
      },
      "handles": "dispatch",
      "publishes": {
        "address": "{$applicationName}/layout/changeSlotData",
        "message": {
          "payload": {
            "parentId": "flux-learnplaces/layout/header/menu",
            "title": {
              "lng_key": "crs_title",
              "id": "flux-learnplaces/layout/header/menu/title",
              "value": "Courses"
            }
          }
        }
      }
    },
    "fetchHeaderMenuItems": {
      "on": {
        "address": "{$applicationName}/repository/created"
      },
      "handles": "dispatch",
      "publishes": {
        "address": "{$applicationName}/repository/fetchData",
        "message": {
          "payload": {
            "dataAddress": "courses/projectIdValueList",
            "next": {
              "address": "flux-learnplaces/layout/changeSlotData",
              "payload": {
                "parentId": "flux-learnplaces/layout/header/menu"
              }
            }
          }
        }
      }
    },
    "createContentContainer": {
      "on": {
        "address": "{$applicationName}/repository/created"
      },
      "handles": "dispatch",
      "publishes": {
        "address": "{$applicationName}/layout/appendTemplateContent",
        "message": {
          "payload": {
            "templateName": "content-container",
            "parentId": "flux-learnplaces/layout"
          }
        }
      }
    },
    "fetchCourseMetadata": {
      "on": {
        "address": "{$applicationName}/layout/header/menu/items/clicked"
      },
      "handles": "dispatch",
      "publishes": {
        "address": "{$applicationName}/repository/fetchData",
        "message": {
          "payload": {
            "dataAddress": "course/projectObject",
            "next": {
              "address": "flux-learnplaces/layout/changeSlotData",
              "payload": {
                "parentId": "flux-learnplaces/layout/content-container"
              }
            }
          }
        }
      }
    },
    "createContentContainerMenu": {
      "on": {
        "address": "{$applicationName}/layout/header/menu/items/clicked"
      },
      "handles": "dispatch",
      "publishes": {
        "address": "{$applicationName}/layout/appendTemplateContent",
        "message": {
          "payload": {
            "templateName": "menu",
            "parentId": "flux-learnplaces/layout/content-container",
            "slotName": "menu"
          }
        }
      }
    },
    "createContentContainerMenuTitle": {
      "on": {
        "address": "{$applicationName}/layout/content-container/menu/created"
      },
      "handles": "dispatch",
      "publishes": {
        "address": "{$applicationName}/layout/changeSlotData",
        "message": {
          "payload": {
            "parentId": "flux-learnplaces/layout/content-container/menu",
            "title": {
              "lng_key": "xsrl_title",
              "id": "flux-learnplaces/layout/content-container/menu/title",
              "value": "Learnplaces"
            }
          }
        }
      }
    },
    "fetchContentContainerMenuItems": {
      "on": {
        "address": "{$applicationName}/layout/header/menu/items/clicked"
      },
      "handles": "dispatch",
      "publishes": {
        "address": "{$applicationName}/repository/fetchData",
        "message": {
          "payload": {
            "dataAddress": "learnplaces/projectIdValueList",
            "next": {
              "address": "flux-learnplaces/layout/changeSlotData",
              "payload": {
                "parentId": "flux-learnplaces/layout/content-container/menu"
              }
            }
          }
        }
      }
    },
    "loadMap": {
      "on": {
        "address": "{$applicationName}/layout/content-container/menu/created"
      },
      "handles": "dispatch",
      "publishes": {
        "address": "{$applicationName}/layout/appendTemplateContent",
        "message": {
          "payload": {
            "templateName": "map",
            "parentId": "flux-learnplaces/layout/content-container",
            "slotName": "content"
          }
        }
      }
    },
    "setDefaultLocation": {
      "on": {
        "address": "{$applicationName}/layout/content-container/map/created"
      },
      "handles": "dispatch",
      "publishes": {
        "address": "{$applicationName}/repository/fetchData",
        "message": {
          "payload": {
            "dataAddress": "defaultLocation/projectObject",
            "next": {
              "address": "flux-learnplaces/layout/changeSlotData",
              "payload": {
                "parentId": "flux-learnplaces/layout/content-container/map"
              }
            }
          }
        }
      }
    },
    "setCourseLocation": {
      "on": {
        "address": "{$applicationName}/layout/header/menu/items/clicked"
      },
      "handles": "dispatch",
      "publishes": {
        "address": "{$applicationName}/repository/fetchData",
        "message": {
          "payload": {
            "dataAddress": "courseLocation/projectObject",
            "next": {
              "address": "flux-learnplaces/layout/changeSlotData",
              "payload": {
                "parentId": "flux-learnplaces/layout/content-container/map"
              }
            }
          }
        }
      }
    },
    "setLearnplaceLocation": {
      "on": {
        "address": "{$applicationName}/layout/content-container/menu/items/clicked"
      },
      "handles": "dispatch",
      "publishes": {
        "address": "{$applicationName}/repository/fetchData",
        "message": {
          "payload": {
            "dataAddress": "learnplaceLocation/projectObject",
            "next": {
              "address": "flux-learnplaces/layout/changeSlotData",
              "payload": {
                "parentId": "flux-learnplaces/layout/content-container/map"
              }
            }
          }
        }
      }
    }
  },
  "changeCoordinates": {
    "on": {
      "address": "{$applicationName}/TODO"
    },
    "handles": "dispatch",
    "publishes": {
      "address": "flux-learnplaces/layout/changeSlotData",
      "message": {
        "payload": {
          "parentId": "flux-learnplaces/layout/content-container/map",
          "data": {
            "marker": {
              "1": {
                "longitude": {
                  "name": "longitude",
                  "value": "30"
                },
                "latitude": {
                  "name": "latitude",
                  "value": "30"
                }
              }
            }
          }
        }
      }
    }
  },
  "changeMapMarkers": {
    "on": {
      "address": "{$applicationName}/layout/TODO/menu/items/clicked"
    },
    "handles": "dispatch",
    "publishes": {
      "address": "flux-learnplaces/layout/changeSlotData",
      "message": {
        "payload": {
          "parentId": "flux-learnplaces/layout/content-container/map",
          "data": {
            "marker": {
              "1": {
                "latitude": {
                  "name": "latitude",
                  "value": "51.50"
                },
                "longitude": {
                  "name": "longitude",
                  "value": "-0.083"
                }
              }
            }
          }
        }
      }
    }
  }
}

